id,email,nombre,telefono,fecha_registro,preferencias_culinarias,rango_presupuesto,ubicacion_lat,ubicacion_lng,foto_perfil,estado
1,juan@email.com,Juan García,+34 612 345 678,2024-01-15,Italiana;Española,Medio,40.4168,-3.7038,https://placeholder.com/avatar1.jpg,activo
2,maria@email.com,María López,+34 623 456 789,2024-01-16,Asiática;Vegetariana,Alto,40.4200,-3.7050,https://placeholder.com/avatar2.jpg,activo
3,carlos@email.com,Carlos Rodríguez,+34 634 567 890,2024-01-17,Mexicana;Fusión,Bajo,40.4150,-3.7000,https://placeholder.com/avatar3.jpg,activo
4,ana@email.com,Ana Martínez,+34 645 678 901,2024-01-18,Francesa;Italiana,Alto,40.4180,-3.7060,https://placeholder.com/avatar4.jpg,activo
5,pedro@email.com,Pedro Sánchez,+34 656 789 012,2024-01-19,Española;Tapas,Medio,40.4160,-3.7020,https://placeholder.com/avatar5.jpg,activo
